     3.02           OBSERVATION DATA    M (MIXED)           RINEX VERSION / TYPE
BLANK OR G = GPS, R = GLONASS, C = BDS, E = GAL, J = QZSS, M = MIXEDCOMMENT             
HGO                 HITARGET            20211215 085134 UTC PGM / RUN BY / DATE 
ag68                                                        MARKER NAME         
                                                            MARKER NUMBER       
whoever             HITARGET                                OBSERVER / AGENCY   
13673215            iRTK5                                   REC # / TYPE / VERS 
1                   HITRTK5         NONE                    ANT # / TYPE        
 -2444707.6295  4793837.5439  3412511.5557                  APPROX POSITION XYZ 
------------------------------------------------------------COMMENT             
*** Antenna height is from mark to BOTTOM OF ANTENNA.       COMMENT             
------------------------------------------------------------COMMENT             
        1.5184        0.0000        0.0000                  ANTENNA: DELTA H/E/N
G   12 C1C C2W C2X C5X L1C L2W L2X L5X S1C S2W S2X S5X      SYS / # / OBS TYPES 
R    9 C1C C1P C2P L1C L1P L2P S1C S1P S2P                  SYS / # / OBS TYPES 
C    6 C1I C7I L1I L7I S1I S7I                              SYS / # / OBS TYPES 
E   12 C1X C5X C7X C8X L1X L5X L7X L8X S1X S5X S7X S8X      SYS / # / OBS TYPES 
J   12 C1C C1Z C2X C5X L1C L1Z L2X L5X S1C S1Z S2X S5X      SYS / # / OBS TYPES 
    10.000                                                  INTERVAL            
  2021    12    14     6    32   30.0000000     GPS         TIME OF FIRST OBS   
  2021    12    14     8    32   40.0000000     GPS         TIME OF LAST OBS    
     0                                                      RCV CLOCK OFFS APPL 
    18                                                      LEAP SECONDS        
                                                            END OF HEADER       
> 2021 12 14 06 32 30.0000000  0 34
G25  23141624.250    23141635.090    23141635.832    23141633.922   121610038.494    94761125.838    94761119.848    90812738.903          41.200          30.500          43.400          45.700  
G26  20740635.336    20740646.336    20740646.578    20740643.832   108992746.429    84929480.282    84929470.286    81390712.598          46.400          49.800          47.500          50.800  
G32  20935821.898    20935831.309    20935831.918    20935828.961   110018463.375    85728730.688    85728721.693    82156688.276          49.800          54.400          49.500          50.900  
G31  20831506.789    20831513.391    20831513.934                   109470290.904    85301567.536    85301571.541                          46.800          50.400          46.400                  
G03  23735880.516    23735891.258    23735892.289    23735890.664   124732867.993    97194506.295    97194502.306    93144727.556          39.500          37.400          41.300          44.900  
G29  23460700.367    23460709.688    23460709.582                   123286795.648    96067684.587    96067685.579                          42.000          30.900          41.800                  
G16  23794868.602    23794877.320                                   125042876.485    97436044.858                                          39.100          22.000                                  
R07  20292244.438    20292243.594    20292250.613   108625975.635   108625971.643    84486712.978          49.900          48.400          44.700  
R08  19577926.172    19577924.336    19577928.934   104838895.389   104838893.397    81541493.894          48.800          47.600          45.500  
R01  22483530.875    22483529.168    22483537.313   120187358.078   120187359.085    93479082.292          43.700          41.800          35.600  
R09  22112524.953    22112524.113    22112529.387   118079607.870   118079640.873    91839502.874          47.500          45.800          42.400  
R10  19857722.883    19857721.520                   105852802.064   105852833.070                          49.500          48.300                  
C21  24906134.703                   129692785.260                          42.800                  
C16  36266490.680    36266490.824   188849137.626   146030118.884          48.600          47.700  
C14  22256546.242    22256543.098   115895680.001    89617938.801          46.300          49.300  
C10  38477120.836    38477119.441   200360468.709   154931420.213          39.700          40.300  
C09  36958162.672    36958159.191   192450853.698   148815197.530          44.500          47.300  
C07  37446929.680    37446924.328   194995986.741   150783265.288          42.600          44.800  
C05  39764861.078                   207066068.438                          32.000                  
C04  38652199.078    38652194.949   201272139.225   155636372.281          38.200          42.900  
C03  37106246.016    37106241.750   193221953.397   149411457.729          40.700          44.500  
C02  37824336.797    37824331.660   196961248.562   152302909.599          36.500          41.800  
C01  37906413.648    37906412.086   197388646.981   152633412.547          40.900          44.900  
C24  22905244.867                   119273630.586                          48.300                  
C26  22106596.820                   115114858.062                          48.500                  
C06  36061762.445    36061757.031   187783060.582   145205749.437          46.200          47.000  
E24  26205709.633    26205715.406    26205712.371    26205715.207   137711932.195   102836855.723   105519543.718   104178206.019          43.300          44.100          46.000          49.100  
E09  22445353.461    22445358.676    22445355.664    22445358.527   117951128.252    88080407.237    90378145.433    89229279.133          47.600          50.000          51.000          53.800  
E01  25546778.625    25546783.680    25546780.668    25546783.453   134249224.378   100251064.257   102866297.867   101558685.858          46.500          48.300          49.800          52.500  
E04  24211747.211    24211751.348    24211748.973    24211751.527   127233589.159    95012111.424    97490677.717    96251401.864          48.900          49.500          51.500          53.900  
J02  19445148.977    19445145.859    19445158.566    19445157.809   204369858.803   204369920.813   159249287.384   152613913.373          47.200          48.700                          51.400  
J03  18959783.547    18959780.527    18959797.359    18959797.719   199268703.484   199268699.351   155274310.783   148804568.194          41.400          41.300                          43.600  
J01  18559207.781    18559205.547    18559216.688    18559216.828   195058585.954   195058624.314   151993731.795   145660668.713          43.800          43.200                          47.600  
J07  18580531.773    18580526.758    18580541.566    18580541.570   195282656.897   195282741.803   152168368.307   145828005.601          38.900          46.100                          49.100  
> 2021 12 14 06 32 40.0000000  0 34
G25  23147363.672    23147373.984    23147374.703    23147372.723   121640196.134    94784625.296    94784619.306    90835259.210          41.200          30.200          43.000          45.800  
G26  20736576.313    20736587.410    20736587.410    20736584.820   108971415.651    84912858.908    84912848.912    81374783.771          46.700          49.900          47.500          50.900  
G32  20937708.258    20937717.539    20937718.133    20937715.262   110028375.884    85736454.720    85736445.725    82164090.465          49.800          54.400          49.100          51.300  
G31  20831418.305    20831425.566    20831426.035                   109469828.556    85301207.264    85301211.268                          47.000          50.700          46.400                  
G03  23731785.063    23731795.801    23731796.582    23731795.266   124711345.870    97177735.828    97177731.828    93128655.846          37.300          36.400          42.600          45.700  
G29  23458618.773    23458627.738    23458628.047                   123275857.215    96059161.153    96059162.143                          42.200          31.000          42.000                  
G16  23787080.125    23787088.668                                   125001946.528    97404151.393                                          37.600          21.500                                  
R07  20296765.883    20296764.770    20296771.730   108650177.175   108650173.189    84505536.389          49.800          48.500          44.600  
R08  19575111.273    19575110.219    19575114.965   104823825.489   104823823.506    81529772.868          48.700          47.600          45.600  
R01  22475694.406    22475692.902    22475700.773   120145468.310   120145469.323    93446501.383          44.300          42.100          36.600  
R09  22117649.000    22117648.211    22117653.273   118106969.834   118107002.852    91860784.401          47.900          46.400          43.100  
R10  19859053.820    19859052.055                   105859894.536   105859925.527                          49.900          47.800                  
C21  24911625.305                   129721375.512                          42.200                  
C16  36265113.727    36265113.543   188841967.024   146024574.130          47.600          47.400  
C14  22254942.203    22254939.285   115887329.101    89611481.354          45.600          49.600  
C10  38474365.047    38474363.488   200346118.163   154920323.468          39.900          41.000  
C09  36956483.945    36956480.500   192442111.484   148808437.486          44.600          46.800  
C07  37444151.000    37444145.777   194981515.539   150772075.247          42.400          45.300  
C05  39764259.234    39764255.859   207062933.181   160114183.133          34.300          38.800  
C04  38651516.438    38651512.668   201268586.105   155633624.787          37.900          42.800  
C03  37105607.977    37105603.738   193218631.145   149408888.761          40.600          44.100  
C02  37823702.539    37823696.973   196957942.889   152300353.437          36.700          42.600  
C01  37905754.383    37905752.941   197385213.673   152630757.690          40.900          44.700  
C24  22902754.680                   119260663.214                          48.000                  
C26  22108239.031                   115123409.721                          49.500                  
C06  36060306.992    36060301.539   187775481.621   145199888.900          46.000          48.000  
E24  26200825.906    26200831.527    26200828.531    26200831.457   137686267.647   102817690.676   105499878.717   104158790.994          44.000          43.800          45.900          48.600  
E09  22441972.906    22441977.992    22441975.066    22441977.930   117933363.101    88067141.054    90364533.173    89215839.909          48.000          50.000          51.300          54.300  
E01  25550287.813    25550292.891    25550289.797    25550292.645   134267665.431   100264835.179   102880428.022   101572636.397          46.400          48.200          49.400          52.500  
E04  24213403.492    24213407.676    24213405.262    24213407.816   127242292.895    95018610.960    97497346.812    96257986.178          48.500          50.300          51.600          54.500  
J02  19445408.078    19445404.633    19445417.090    19445416.684   204372580.522   204372642.532   159251408.209   152615945.826          47.200          48.600                          51.400  
J03  18959155.750    18959152.234    18959169.219    18959169.348   199262102.640   199262098.506   155269167.320   148799639.063          40.900          41.700                          43.200  
J01  18558493.984    18558491.723    18558502.898    18558503.039   195051083.731   195051122.100   151987885.911   145655066.408          44.400          43.200                          47.300  
J07  18580195.094    18580189.766    18580204.758    18580204.680   195279116.973   195279201.878   152165609.933   145825362.153          38.800          46.000                          49.100  
> 2021 12 14 06 32 50.0000000  0 34
G25  23153100.516    23153110.898    23153111.328    23153109.398   121670342.684    94808116.123    94808110.126    90857771.247          41.400          29.700          43.300          45.900  
G26  20732521.836    20732532.492    20732532.375    20732529.965   108950106.942    84896254.730    84896244.733    81358871.445          46.900          49.900          47.600          51.000  
G32  20939597.828    20939607.059    20939607.500    20939604.855   110038305.499    85744192.079    85744183.076    82171505.431          49.800          54.400          48.600          50.600  
G31  20831329.094    20831335.703    20831336.063                   109469356.589    85300839.496    85300843.500                          46.900          50.500          46.800                  
G03  23727694.031    23727704.707    23727705.129    23727704.258   124689847.805    97160984.106    97160980.102    93112602.120          37.600          35.800          42.300          45.400  
G29  23456542.633    23456551.367    23456551.051                   123264943.272    96050656.787    96050657.783                          42.200          32.100          42.400                  
G16  23779288.875    23779297.629                                   124961007.172    97372250.651                                          39.300          21.800                                  
R07  20301293.461    20301292.621    20301299.449   108674413.903   108674409.926    84524387.166          50.000          48.700          44.900  
R08  19572306.242    19572305.148    19572309.879   104808804.608   104808802.618    81518089.956          48.600          47.100          45.600  
R01  22467857.297    22467856.848    22467864.230   120103577.824   120103578.824    93413919.906          44.600          42.000          36.300  
R09  22122767.555    22122767.105    22122772.035   118134303.376   118134336.388    91882043.816          48.800          46.400          42.600  
R10  19860386.195    19860384.563                   105866996.896   105867027.899                          49.600          48.900                  
C21  24917112.641                   129749951.765                          41.600                  
C16  36263730.422    36263730.555   188834765.249   146019005.262          47.200          47.600  
C14  22253343.219    22253340.004   115879001.271    89605041.765          46.100          49.800  
C10  38471605.125    38471603.480   200331744.996   154909209.235          39.900          41.000  
C09  36954798.172    36954794.773   192433334.073   148801650.237          44.600          47.700  
C07  37441367.867    37441362.574   194967023.946   150760869.437          42.400          45.000  
C05  39763650.664    39763647.527   207059765.873   160111733.979          34.800          38.900  
C04  38650828.711    38650824.355   201265001.679   155630853.081          38.000          43.300  
C03  37104963.875    37104959.707   193215277.462   149406295.484          40.700          44.600  
C02  37823061.930    37823056.090   196954606.018   152297773.177          36.600          42.000  
C01  37905089.000    37905087.430   197381749.102   152628078.663          40.900          44.300  
C24  22900263.375                   119247690.098                          48.400                  
C26  22109878.469                   115131946.657                          48.600                  
C06  36058844.984    36058839.629   187767870.387   145194003.419          46.100          48.000  
E24  26195940.930    26195946.488    26195943.313    26195946.359   137660596.579   102798520.755   105480208.701   104139371.023          43.700          44.100          44.900          48.100  
E09  22438591.352    22438596.609    22438593.801    22438596.582   117915593.934    88053871.869    90350917.836    89202397.650          47.900          49.000          50.600          53.900  
E01  25553793.703    25553798.750    25553795.707    25553798.535   134286089.083   100278593.102   102894544.849   101586573.771          45.800          48.200          49.300          52.100  
E04  24215060.313    24215064.590    24215062.234    24215064.703   127250999.863    95025112.910    97504018.379    96264572.942          48.400          50.000          51.300          53.600  
J02  19445663.750    19445660.770    19445673.285    19445672.559   204375268.773   204375330.783   159253502.949   152617953.297          47.000          49.100                          51.700  
J03  18958524.578    18958521.230    18958537.777    18958538.035   199255468.781   199255464.647   155263998.138   148794685.277          41.100          41.900                          43.200  
J01  18557777.805    18557776.137    18557787.500    18557787.523   195043559.931   195043598.299   151982023.205   145649447.979          43.600          43.400                          47.000  
J07  18579855.297    18579850.137    18579864.691    18579864.848   195275545.666   195275630.571   152162827.096   145822695.271          39.500          46.000                          49.000  
> 2021 12 14 06 33  0.0000000  0 34
G25  23158835.781    23158845.887    23158846.512    23158844.660   121700481.464    94831600.882    94831594.885    90880277.469          41.100          29.700          42.600          45.700  
G26  20728471.773    20728482.473    20728482.285    20728479.805   108928823.708    84879670.401    84879660.404    81342978.128          46.700          49.900          47.600          51.100  
G32  20941491.391    20941500.430    20941500.926    20941498.375   110048255.677    85751945.457    85751936.462    82178935.751          49.800          54.400          49.100          50.300  
G31  20831238.477    20831245.063    20831245.086                   109468878.482    85300466.952    85300470.956                          47.000          50.600          47.800                  
G03  23723609.195    23723619.059    23723619.711    23723618.574   124668377.333    97144253.868    97144249.875    93096568.977          39.400          35.700          41.700          45.400  
G29  23454470.977    23454479.539    23454479.547                   123254057.393    96042174.321    96042175.325                          42.500          32.300          41.500                  
G16  23771497.883    23771506.504                                   124920061.938    97340345.317                                          39.700          22.200                                  
R07  20305828.641    20305827.500    20305834.496   108698689.264   108698685.271    84543267.991          50.100          48.400          44.600  
R08  19569511.414    19569510.148    19569514.598   104793836.391   104793834.399    81506448.007          49.200          47.500          45.900  
R01  22460021.594    22460020.711    22460028.238   120061690.013   120061691.015    93381340.515          43.700          41.700          36.600  
R09  22127882.078    22127880.965    22127885.852   118161611.903   118161644.906    91903283.770          48.100          46.700          42.200  
R10  19861720.539    19861719.273                   105874112.509   105874143.528                          49.900          48.400                  
C21  24922598.852                   129778517.392                          42.600                  
C16  36262342.148    36262342.398   188827535.751   146013414.956          47.800          47.700  
C14  22251748.602    22251745.816   115870699.924    89598622.638          46.600          49.500  
C10  38468841.500    38468839.531   200317352.563   154898080.088          40.300          40.500  
C09  36953106.523    36953103.141   192424525.037   148794838.525          44.700          47.600  
C07  37438582.000    37438576.395   194952515.476   150749650.567          42.900          44.300  
C05  39763037.063    39763033.715   207056570.901   160109263.415          34.300          39.400  
C04  38650135.141    38650130.480   201261389.356   155628059.807          37.800          42.100  
C03  37104314.367    37104310.113   193211895.756   149403680.535          40.600          44.000  
C02  37822415.563    37822409.879   196951241.424   152295171.461          36.600          43.000  
C01  37904418.227    37904416.703   197378256.724   152625378.133          40.900          45.000  
C24  22897771.711                   119234714.603                          48.600                  
C26  22111515.555                   115140472.283                          48.300                  
C06  36057378.367    36057372.336   187760230.389   145188095.685          45.500          47.700  
E24  26191055.070    26191060.777    26191057.645    26191060.652   137634922.411   102779348.504   105460536.300   104119948.696          43.400          44.400          45.300          48.600  
E09  22435210.125    22435215.227    22435212.258    22435215.098   117897824.228    88040602.286    90337302.086    89188954.982          48.200          49.500          51.200          53.900  
E01  25557297.047    25557301.949    25557299.066    25557301.805   134304498.740   100292340.570   102908650.947   101600500.559          46.500          48.300          49.000          52.300  
E04  24216718.523    24216722.785    24216720.371    24216722.871   127259713.530    95031619.864    97510695.084    96271164.771          48.600          50.200          52.200          54.200  
J02  19445916.727    19445913.289    19445926.000    19445925.430   204377926.982   204377988.993   159255574.286   152619938.319          47.300          49.600                          51.000  
J03  18957890.336    18957887.535    18957903.762    18957904.184   199248805.330   199248801.196   155258805.891   148789709.380          41.400          42.700                          43.500  
J01  18557060.320    18557058.520    18557069.531    18557069.828   195036018.034   195036056.396   151976146.399   145643816.043          44.100          43.900                          47.000  
J07  18579512.711    18579507.832    18579522.414    18579522.488   195271946.319   195272031.225   152160022.404   145820007.448          40.400          46.100                          49.300  
> 2021 12 14 06 33 10.0000000  0 34
G25  23164570.070    23164579.656    23164580.777    23164578.531   121730613.313    94855080.241    94855074.239    90902778.522          40.800          30.000          42.500          45.800  
G26  20724426.461    20724437.398    20724437.527    20724434.883   108907566.907    84863106.680    84863096.683    81327104.562          46.800          49.900          47.800          51.200  
G32  20943389.047    20943398.191    20943398.805    20943395.871   110058227.299    85759715.547    85759706.544    82186382.084          50.000          54.400          48.900          50.600  
G31  20831146.242    20831152.887    20831153.133                   109468395.138    85300090.318    85300094.322                          47.200          50.600          47.000                  
G03  23719528.570    23719538.668    23719539.309    23719538.324   124646935.457    97127545.911    97127541.914    93080557.194          37.900          35.700          41.400          45.100  
G29  23452405.273    23452413.492    23452413.695                   123243200.517    96033714.431    96033715.423                          42.900          31.900          41.800                  
G16  23763704.875    23763714.055                                   124879111.837    97308436.187                                          39.600          21.800                                  
R07  20310370.469    20310369.699    20310376.586   108723004.074   108723000.089    84562179.498          49.900          48.600          45.400  
R08  19566725.648    19566724.711    19566729.492   104778921.943   104778919.952    81494847.879          48.700          47.300          46.100  
R01  22452186.398    22452184.902    22452192.996   120019806.267   120019807.271    93348764.282          43.400          42.100          36.800  
R09  22132991.141    22132990.402    22132995.219   118188896.104   118188929.103    91924504.825          48.500          46.000          40.800  
R10  19863058.703    19863057.141                   105881241.914   105881272.919                          49.800          48.700                  
C21  24928082.367                   129807073.107                          42.000                  
C16  36260948.789    36260948.758   188820279.409   146007803.893          47.900          47.700  
C14  22250159.813    22250157.031   115862425.971    89592224.696          45.700          50.000  
C10  38466073.867    38466071.953   200302941.785   154886936.776          39.000          40.300  
C09  36951408.797    36951405.527   192415685.186   148788002.986          44.500          46.800  
C07  37435792.219    37435787.012   194937990.983   150738419.320          43.300          44.300  
C05  39762417.766    39762415.098   207053349.194   160106772.201          34.800          38.800  
C04  38649435.539    38649431.426   201257749.988   155625245.621          37.900          42.700  
C03  37103659.508    37103655.691   193208486.946   149401044.631          40.800          43.900  
C02  37821765.188    37821758.719   196947849.972   152292548.979          36.800          42.200  
C01  37903742.750    37903740.789   197374737.386   152622656.763          40.900          44.500  
C24  22895279.070                   119221737.634                          48.100                  
C26  22113151.320                   115148987.434                          48.600                  
C06  36055905.609    36055899.898   187752562.479   145182166.379          46.000          47.400  
E24  26186169.047    26186174.828    26186171.504    26186174.590   137609246.097   102760174.666   105440862.269   104100524.768          43.900          44.000          45.200          48.500  
E09  22431828.570    22431833.816    22431830.988    22431833.742   117880054.972    88027333.035    90323686.682    89175512.657          47.700          50.200          50.900          54.200  
E01  25560797.500    25560802.695    25560799.742    25560802.578   134322895.211   100306078.192   102922746.954   101614417.369          46.300          48.000          49.200          52.100  
E04  24218378.156    24218382.484    24218379.977    24218382.477   127268434.805    95038132.502    97517377.616    96277762.357          48.300          49.900          51.300          53.900  
J02  19446166.969    19446163.422    19446176.148    19446175.508   204380556.016   204380618.026   159257622.885   152621901.563          47.000          48.900                          51.000  
J03  18957253.609    18957250.316    18957266.926    18957267.363   199242113.148   199242109.015   155253591.261   148784712.031          42.200          41.700                          43.200  
J01  18556341.148    18556339.133    18556350.188    18556350.531   195028458.899   195028497.268   151970256.162   145638171.229          44.100          43.100                          47.300  
J07  18579167.828    18579162.398    18579177.113    18579177.320   195268319.964   195268404.869   152157196.681   145817299.461          39.700          46.300                          49.300  
> 2021 12 14 06 33 20.0000000  0 34
G25  23170302.539    23170312.438    23170313.035    23170311.152   121760738.964    94878554.763    94878548.766    90925274.943          40.500          29.900          43.100          45.600  
G26  20720387.031    20720397.684    20720397.543    20720395.063   108886337.555    84846564.334    84846554.345    81311251.483          46.400          50.000          47.600          50.900  
G32  20945290.859    20945299.988    20945300.453    20945297.680   110068221.323    85767503.094    85767494.099    82193845.157          50.100          54.500          48.700          50.900  
G31  20831053.266    20831059.961    20831060.285                   109467907.494    85299710.339    85299714.343                          47.300          50.500          47.000                  
G03  23715454.453    23715464.020    23715464.742    23715463.746   124625523.118    97110860.987    97110856.990    93064567.480          39.300          35.500          41.600          46.000  
G29  23450344.648    23450353.410    23450353.520                   123232373.643    96025277.920    96025278.909                          42.500          31.600          41.600                  
G16  23755910.836    23755920.121                                   124838157.829    97276523.998                                          39.200          22.300                                  
R07  20314920.266    20314919.543    20314926.402   108747359.186   108747355.186    84581122.351          50.200          48.800          44.700  
R08  19563951.305    19563949.746    19563954.574   104764062.346   104764060.349    81483290.420          49.000          47.400          45.600  
R01  22444353.133    22444351.051    22444358.863   119977927.549   119977928.541    93316191.966          43.100          42.000          36.700  
R09  22138096.344    22138095.551    22138100.191   118216157.037   118216190.033    91945707.756          48.100          46.100          40.900  
R10  19864398.820    19864397.195                   105888386.287   105888417.285                          50.000          47.800                  
C21  24933564.305                   129835619.872                          41.300                  
C16  36259550.461    36259550.578   188812997.208   146002172.831          48.400          47.200  
C14  22248576.570    22248573.523   115854180.394    89585848.688          45.800          50.300  
C10  38463303.031    38463300.699   200288513.709   154875780.077          39.400          41.100  
C09  36949705.625    36949702.074   192406815.479   148781144.365          45.200          47.200  
C07  37433000.086    37432994.855   194923451.432   150727176.426          42.700          45.000  
C05  39761794.852    39761791.621   207050101.690   160104261.020          33.700          39.900  
C04  38648732.031    38648727.664   201254084.549   155622411.268          38.100          43.100  
C03  37103000.086    37102996.113   193205052.028   149398388.539          40.700          44.100  
C02  37821107.719    37821102.215   196944432.686   152289906.536          36.900          42.500  
C01  37903061.828    37903060.023   197371192.072   152619915.300          40.900          44.600  
C24  22892786.820                   119208760.116                          48.300                  
C26  22114784.305                   115157493.032                          48.800                  
C06  36054427.758    36054422.086   187744867.652   145176216.248          46.400          47.900  
E24  26181282.750    26181288.520    26181285.207    26181288.320   137583568.606   102740999.947   105421187.342   104081099.938          44.200          44.000          45.100          48.200  
E09  22428447.633    22428452.762    22428449.953    22428452.633   117862287.188    88014064.885    90310072.407    89162071.441          47.300          49.500          51.000          53.900  
E01  25564296.219    25564301.125    25564298.246    25564300.996   134341279.435   100319806.673   102936833.570   101628324.919          46.500          48.000          49.200          52.300  
E04  24220039.391    24220043.719    24220041.188    24220043.723   127277164.625    95044651.521    97524066.692    96284366.403          48.200          49.900          51.200          53.900  
J02  19446414.289    19446410.984    19446423.703    19446423.098   204383156.871   204383218.882   159259649.526   152623843.768          47.300          48.600                          51.200  
J03  18956614.547    18956610.707    18956627.219    18956627.723   199235393.311   199235389.178   155248355.076   148779694.031          41.700          42.000                          42.900  
J01  18555620.367    18555618.586    18555629.684    18555629.695   195020883.556   195020921.916   151964353.302   145632514.325          43.200          42.600                          47.300  
J07  18578820.328    18578814.988    18578829.574    18578829.746   195264667.511   195264752.416   152154350.609   145814571.979          39.700          45.900                          48.800  
> 2021 12 14 06 33 30.0000000  0 34
G25  23176034.219    23176044.395    23176044.867    23176042.984   121790860.380    94902025.987    94902019.990    90947768.197          41.100          30.200          43.100          45.300  
G26  20716352.609    20716363.285    20716363.438    20716360.813   108865137.483    84830044.810    84830034.813    81295420.273          46.500          50.000          47.900          50.300  
G32  20947197.289    20947206.332    20947206.840    20947204.066   110078239.601    85775309.535    85775300.540    82201326.329          49.800          54.300          49.400          50.400  
G31  20830960.164    20830966.645    20830967.191                   109467417.311    85299328.377    85299332.382                          47.300          50.500          46.900                  
G03  23711386.148    23711395.281    23711396.047    23711395.137   124604142.354    97094200.654    97094196.643    93048601.326          38.100          35.700          42.100          45.600  
G29  23448290.750    23448298.770    23448299.422                   123221578.756    96016866.328    96016867.329                          43.000          32.200          41.800                  
G16  23748117.672    23748126.574                                   124797201.866    97244610.297                                          39.200          22.200                                  
R07  20319477.703    20319477.094    20319483.836   108771756.221   108771752.229    84600097.813          50.000          48.600          44.600  
R08  19561186.555    19561185.395    19561190.168   104749259.082   104749257.092    81471776.777          49.200          47.800          45.500  
R01  22436519.289    22436517.836    22436526.117   119936055.925   119936056.921    93283625.162          44.000          42.300          36.900  
R09  22143197.352    22143196.516    22143201.352   118243396.536   118243429.525    91966894.035          48.200          46.100          41.500  
R10  19865742.852    19865740.633                   105895546.924   105895577.930                          50.200          48.200                  
C21  24939045.445                   129864159.352                          41.300                  
C16  36258147.391    36258147.363   188805690.950   145996523.184          48.500          47.600  
C14  22246998.828    22246995.898   115845965.023    89579496.045          46.700          50.400  
C10  38460528.938    38460527.242   200274070.104   154864611.366          39.200          41.200  
C09  36947996.703    36947993.566   192397917.772   148774264.105          45.600          47.300  
C07  37430205.109    37430200.152   194908898.655   150715923.304          42.800          44.900  
C05  39761166.617    39761163.000   207046830.179   160101731.299          34.300          39.100  
C04  38648023.313    38648019.164   201250394.826   155619558.138          38.200          42.800  
C03  37102335.453    37102331.539   193201592.744   149395713.602          40.700          44.600  
C02  37820447.180    37820441.605   196940991.284   152287245.433          36.800          42.400  
C01  37902376.289    37902374.629   197367622.568   152617155.139          41.100          45.000  
C24  22890294.969                   119195783.821                          47.900                  
C26  22116416.352                   115165990.807                          48.000                  
C06  36052945.406    36052939.836   187737147.653   145170246.656          46.800          47.700  
E24  26176396.398    26176402.395    26176399.102    26176402.137   137557891.799   102721825.734   105401512.929   104061675.628          44.200          44.000          46.000          48.500  
E09  22425067.063    22425072.277    22425069.418    22425072.168   117844522.705    88000799.200    90296460.666    89148632.729          48.200          49.800          50.900          54.100  
E01  25567792.508    25567797.508    25567794.789    25567797.410   134359653.160   100333527.313   102950912.140   101642224.522          45.800          48.100          49.400          52.000  
E04  24221702.617    24221706.809    24221704.305    24221706.914   127285904.816    95051178.282    97530763.716    96290978.295          48.600          49.900          51.700          53.700  
J02  19446659.266    19446656.145    19446668.516    19446668.039   204385731.366   204385793.377   159261655.634   152625766.287          47.300          48.500                          51.200  
J03  18955972.375    18955968.953    18955985.746    18955986.160   199228647.560   199228643.427   155243098.709   148774656.688          41.700          41.700                          43.300  
J01  18554898.523    18554896.090    18554906.813    18554907.262   195013293.795   195013332.163   151958439.204   145626846.647          43.200          43.300                          46.700  
J07  18578470.125    18578465.500    18578480.094    18578480.297   195260990.827   195261075.732   152151485.673   145811826.409          39.400          45.900                          49.000  
> 2021 12 14 06 33 40.0000000  0 34
G25  23181765.359    23181775.242    23181776.160    23181773.973   121820977.113    94925493.557    94925487.571    90970257.963          41.400          29.800          43.500          45.100  
G26  20712324.125    20712334.707    20712334.848    20712331.988   108843966.521    84813547.965    84813537.968    81279610.805          46.600          50.100          47.800          51.100  
G32  20949107.805    20949117.500    20949117.965    20949115.148   110088281.904    85783134.706    85783125.703    82208825.448          49.600          54.500          49.200          50.400  
G31  20830866.352    20830872.707    20830873.242                   109466924.385    85298944.277    85298948.274                          46.800          50.300          46.700                  
G03  23707323.375    23707332.844    23707333.625    23707332.414   124582792.803    97077564.651    97077560.662    93032658.499          39.400          36.200          41.600          45.100  
G29  23446242.203    23446250.828    23446250.922                   123210815.617    96008479.480    96008480.470                          42.100          31.400          41.700                  
G16  23740324.031    23740332.453                                   124756243.905    97212695.053                                          38.800          21.100                                  
R07  20324043.523    20324042.613    20324049.395   108796195.188   108796191.203    84619105.888          49.600          48.400          44.900  
R08  19558432.414    19558431.465    19558436.441   104734512.604   104734510.620    81460307.297          48.700          47.000          45.400  
R01  22428687.430    22428685.578    22428694.316   119894191.195   119894192.191    93251063.712          43.500          41.800          36.500  
R09  22148294.508    22148293.762    22148298.266   118270614.090   118270647.085    91988063.252          48.200          46.000          41.400  
R10  19867089.055    19867087.090                   105902724.075   105902755.080                          50.300          48.500                  
C21  24944524.992                   129892691.372                          41.300                  
C16  36256739.820    36256739.652   188798360.509   145990854.819          47.100          47.600  
C14  22245427.266    22245423.914   115837779.675    89573166.615          46.600          50.300  
C10  38457752.227    38457750.570   200259610.684   154853430.438          39.200          41.400  
C09  36946282.953    36946279.367   192388991.829   148767362.005          45.400          47.500  
C07  37427408.086    37427402.848   194894332.435   150704659.790          41.900          44.500  
C05  39760533.508    39760530.570   207043534.475   160099182.854          35.500          38.700  
C04  38647309.969    38647305.719   201246680.631   155616686.099          38.100          43.300  
C03  37101666.883    37101662.559   193198108.902   149393019.684          40.600          44.300  
C02  37819781.492    37819776.074   196937525.608   152284565.560          36.800          42.500  
C01  37901685.867    37901684.293   197364028.669   152614376.104          40.800          44.900  
C24  22887803.148                   119182808.509                          48.000                  
C26  22118046.484                   115174480.571                          48.800                  
C06  36051458.016    36051452.281   187729402.364   145164257.515          46.200          47.100  
E24  26171510.883    26171516.297    26171513.078    26171516.066   137532215.482   102702651.892   105381838.895   104042251.690          44.600          44.100          45.900          49.200  
E09  22421687.320    22421692.395    22421689.508    22421692.285   117826761.432    87987535.920    90282851.376    89135196.443          48.000          49.700          50.600          54.200  
E01  25571286.742    25571291.934    25571289.063    25571291.754   134378016.143   100347239.930   102964982.477   101656116.002          46.300          48.300          49.200          52.000  
E04  24223367.711    24223371.945    24223369.414    24223372.055   127294655.192    95057712.650    97537468.543    96297597.895          49.100          49.800          51.100          54.000  
J02  19446901.625    19446898.645    19446911.059    19446910.543   204388279.240   204388341.251   159263640.991   152627668.929          47.400          48.500                          51.200  
J03  18955328.406    18955324.184    18955341.000    18955341.418   199221875.769   199221871.635   155237822.046   148769599.893          41.400          42.600                          43.200  
J01  18554174.648    18554172.859    18554183.965    18554184.016   195005689.386   195005727.754   151952513.691   145621168.027          44.100          42.600                          46.800  
J07  18578118.070    18578113.094    18578127.957    18578128.023   195257289.608   195257374.508   152148601.601   145809062.516          38.700          46.000                          49.500  
> 2021 12 14 06 33 50.0000000  0 34
G25  23187495.617    23187506.395    23187507.227    23187504.820   121851092.855    94948960.379    94948954.385    90992746.993          41.300          29.400          43.100          44.700  
G26  20708301.414    20708312.176    20708312.262    20708309.527   108822828.483    84797076.780    84797066.783    81263825.922          47.500          50.000          48.100          50.600  
G32  20951024.188    20951033.602    20951033.969    20951031.461   110098352.066    85790981.581    85790972.578    82216345.369          49.600          54.400          48.500          50.100  
G31  20830772.523    20830779.250    20830779.945                   109466432.486    85298560.982    85298564.986                          46.800          50.400          47.200                  
G03  23703267.180    23703276.969    23703277.715    23703276.281   124561478.473    97060956.070    97060952.081    93016741.957          39.600          37.100          42.400          44.700  
G29  23444201.070    23444209.613    23444209.484                   123200088.074    96000120.397    96000121.387                          42.100          31.900          42.200                  
G16  23732529.773    23732538.957                                   124715287.814    97180781.243                                          39.400          22.000                                  
R07  20328616.578    20328616.547    20328623.156   108820679.612   108820675.620    84638149.322          49.900          48.300          45.300  
R08  19555690.203    19555689.117    19555693.805   104719826.609   104719824.619    81448884.854          49.100          47.200          45.500  
R01  22420858.867    22420856.625    22420864.801   119852337.642   119852338.642    93218510.944          44.000          42.300          36.200  
R09  22153388.094    22153386.918    22153392.027   118297813.686   118297846.681    92009218.494          48.900          46.100          42.100  
R10  19868438.727    19868436.945                   105909921.454   105909952.473                          49.600          48.300                  
C21  24950003.141                   129921219.497                          42.600                  
C16  36255328.063    36255327.789   188791009.622   145985170.650          48.400          47.600  
C14  22243861.414    22243858.520   115829628.157    89566863.345          46.300          50.400  
C10  38454973.281    38454971.781   200245139.318   154842240.277          39.600          41.400  
C09  36944564.008    36944560.684   192380041.446   148760441.003          44.700          47.600  
C07  37424608.930    37424603.617   194879756.558   150693388.796          42.500          45.000  
C05  39759896.813    39759893.359   207040218.315   160096618.611          34.500          38.900  
C04  38646592.531    38646588.563   201242945.749   155613798.051          37.900          42.200  
C03  37100993.492    37100989.773   193194604.296   149390309.697          40.500          43.600  
C02  37819112.063    37819106.484   196934039.420   152281869.823          37.000          42.200  
C01  37900992.063    37900990.180   197360414.156   152611581.136          41.000          44.500  
C24  22885312.203                   119169837.960                          47.500                  
C26  22119676.141                   115182966.019                          49.300                  
C06  36049966.211    36049960.754   187721635.588   145158251.754          45.800          47.500  
E24  26166625.656    26166631.125    26166627.871    26166630.840   137506543.499   102683481.281   105362168.178   104022831.028          44.600          44.200          45.200          48.400  
E09  22418308.891    22418313.891    22418311.051    22418313.762   117809007.189    87974277.881    90269247.477    89121765.476          47.900          50.100          51.300          54.200  
E01  25574779.906    25574784.980    25574782.117    25574784.805   134396372.112   100360947.314   102979047.445   101670002.182          46.500          47.800          49.100          51.700  
E04  24225035.633    24225039.738    24225037.129    24225039.848   127303419.554    95064257.460    97544184.092    96304228.070          48.100          49.900          51.100          53.700  
J02  19447141.672    19447139.000    19447151.488    19447151.027   204390804.322   204390866.333   159265608.595   152629554.545          47.500          48.500                          51.000  
J03  18954681.773    18954678.332    18954695.004    18954695.215   199215081.705   199215077.571   155232528.033   148764526.469          42.000          42.200                          42.900  
J01  18553450.203    18553447.957    18553459.285    18553459.414   194998074.239   194998112.607   151946579.814   145615481.393          43.600          43.100                          46.800  
J07  18577764.336    18577758.848    18577773.578    18577773.516   195253567.788   195253652.694   152145701.488   145806283.244          39.700          46.000                          48.800  
> 2021 12 14 06 34  0.0000000  0 34
G25  23193227.203    23193237.430    23193238.160    23193235.836   121881209.576    94972427.939    94972421.953    91015236.754          40.400          29.200          43.400          44.700  
G26  20704285.477    20704296.496    20704296.203    20704293.742   108801725.455    84780632.871    84780622.875    81248067.177          46.300          49.900          47.300          51.000  
G32  20952946.398    20952955.609    20952956.254    20952953.418   110108452.091    85798851.725    85798842.722    82223887.591          49.800          54.400          48.900          50.700  
G31  20830679.641    20830686.363    20830686.543                   109465943.569    85298180.004    85298184.009                          47.000          50.400          47.000                  
G03  23699217.570    23699228.047    23699228.449    23699227.258   124540201.429    97044376.547    97044372.542    93000853.236          39.400          37.700          42.000          44.300  
G29  23442166.719    23442175.449    23442175.695                   123189398.343    95991790.725    95991791.714                          42.500          31.600          42.500                  
G16  23724736.867    23724745.859                                   124674335.554    97148870.437                                          38.700          21.500                                  
R07  20333200.242    20333199.492    20333205.984   108845211.504   108845207.512    84657229.675          50.100          49.100          44.700  
R08  19552958.867    19552958.336    19552963.039   104705203.318   104705201.336    81437511.186          48.600          47.400          45.300  
R01  22413030.672    22413029.750    22413037.516   119810497.306   119810498.314    93185968.473          44.900          41.800          36.200  
R09  22158479.188    22158477.898    22158482.715   118324997.177   118325030.174    92030361.202          49.000          46.400          42.300  
R10  19869793.578    19869791.336                   105917140.692   105917171.695                          50.300          48.800                  
C21  24955481.367                   129949745.715                          42.700                  
C16  36253912.922    36253912.883   188783640.308   145979472.228          48.000          46.500  
C14  22242303.125    22242300.027   115821512.546    89560587.843          46.200          50.400  
C10  38452192.141    38452190.496   200230658.119   154831042.495          39.700          41.600  
C09  36942840.727    36942837.387   192371068.628   148753502.649          45.500          47.700  
C07  37421807.969    37421802.910   194865173.021   150682111.888          42.600          44.700  
C05  39759255.820    39759253.094   207036883.756   160094040.123          34.500          39.000  
C04  38645871.781    38645867.797   201239192.152   155610895.542          38.100          43.600  
C03  37100317.477    37100312.840   193191080.939   149387585.224          40.900          43.400  
C02  37818439.180    37818433.324   196930534.739   152279159.789          36.600          43.000  
C01  37900294.570    37900292.547   197356781.024   152608771.772          41.100          44.100  
C24  22882823.047                   119156874.159                          48.000                  
C26  22121305.406                   115191449.128                          49.500                  
C06  36048471.242    36048465.395   187713849.314   145152230.920          45.300          46.700  
E24  26161741.406    26161747.199    26161743.918    26161746.836   137480877.864   102664315.417   105342502.335   104003415.171          44.000          44.700          46.000          48.900  
E09  22414932.063    22414937.230    22414934.258    22414937.004   117791262.069    87961026.658    90255650.571    89108341.409          47.700          49.900          51.200          53.900  
E01  25578272.086    25578277.008    25578274.172    25578276.863   134414723.053   100374650.944   102993108.562   101683884.549          45.900          48.500          49.600          52.200  
E04  24226706.430    24226710.742    24226708.035    24226710.699   127312199.896    95070814.205    97550911.882    96310870.342          48.300          50.600          51.300          54.400  
J02  19447380.055    19447377.109    19447389.922    19447389.176   204393308.588   204393370.605   159267559.977   152631424.612          47.400          48.600                          51.100  
J03  18954033.195    18954029.965    18954046.656    18954047.109   199208267.424   199208263.291   155227218.261   148759437.955          41.400          41.800                          43.300  
J01  18552724.703    18552722.902    18552733.809    18552734.098   194990450.309   194990488.677   151940639.079   145609788.194          43.500          43.100                          47.000  
J07  18577408.297    18577402.918    18577417.883    18577417.762   195249827.306   195249912.211   152142786.832   145803490.026          39.800          46.000                          49.400  
> 2021 12 14 06 34 10.0000000  0 34
G25  23198957.367    23198967.453    23198968.660    23198966.383   121911323.956    94995893.685    94995887.702    91037724.764          40.400          28.300          42.500          45.300  
G26  20700276.180    20700286.645    20700286.477    20700283.980   108780654.241    84764213.751    84764203.755    81232332.184          46.200          49.700          47.900          51.100  
G32  20954873.422    20954882.629    20954883.148    20954880.352   110118578.758    85806742.632    85806733.630    82231449.704          49.700          54.400          49.100          50.600  
G31  20830586.578    20830593.059    20830593.457                   109465454.480    85297798.899    85297802.911                          47.000          50.300          46.800                  
G03  23695176.023    23695185.707    23695186.418    23695184.789   124518958.431    97027823.569    97027819.562    92984989.975          39.000          37.500          42.600          44.700  
G29  23440139.133    23440147.680    23440148.000                   123178743.114    95983487.967    95983488.964                          42.100          32.000          41.700                  
G16  23716944.367    23716953.090                                   124633384.180    97116960.337                                          39.000          22.000                                  
R07  20337790.695    20337790.211    20337797.012   108869787.606   108869783.607    84676344.412          49.600          48.700          45.500  
R08  19550239.680    19550238.699    19550243.398   104690639.690   104690637.687    81426183.917          49.400          47.400          45.500  
R01  22405205.523    22405204.648    22405212.152   119768667.137   119768668.138    93153433.909          43.800          42.000          35.900  
R09  22163566.000    22163564.727    22163569.883   118352161.286   118352194.298    92051488.843          49.500          46.700          42.700  
R10  19871151.328    19871149.402                   105924378.525   105924409.531                          50.400          48.500                  
C21  24960958.672                   129978266.760                          43.200                  
C16  36252493.367    36252493.270   188776249.417   145973757.122          48.200          46.700  
C14  22240750.547    22240747.773   115813429.590    89554337.591          46.000          49.900  
C10  38449408.953    38449407.121   200216163.776   154819834.564          39.200          41.800  
C09  36941112.336    36941109.469   192362070.260   148746544.533          44.900          46.900  
C07  37419005.359    37419000.168   194850578.665   150670826.617          42.300          45.000  
C05  39758611.875    39758608.430   207033527.596   160091444.939          33.700          38.200  
C04  38645147.031    38645142.809   201235416.725   155607976.138          37.900          42.800  
C03  37099636.352    37099632.199   193187535.585   149384843.732          40.800          43.900  
C02  37817761.813    37817756.277   196927008.333   152276432.962          36.500          43.000  
C01  37899592.586    37899590.367   197353126.083   152605945.536          40.900          44.500  
C24  22880333.781                   119143913.859                          48.100                  
C26  22122933.297                   115199926.644                          49.000                  
C06  36046971.297    36046965.945   187706040.367   145146192.544          45.700          46.400  
E24  26156858.266    26156863.664    26156860.457    26156863.375   137455215.403   102645151.920   105322838.908   103984001.712          44.000          44.000          45.600          48.500  
E09  22411556.516    22411561.602    22411558.680    22411561.367   117773522.909    87947779.881    90242058.229    89094921.852          48.300          49.400          51.000          53.800  
E01  25581762.680    25581767.480    25581764.535    25581767.328   134433065.664   100388348.351   103007163.285   101697760.613          46.400          48.200          49.400          52.300  
E04  24228379.680    24228383.980    24228381.270    24228383.988   127320993.024    95077380.499    97557649.470    96317522.280          49.000          50.200          51.000          53.500  
J02  19447616.070    19447613.109    19447625.648    19447625.113   204395788.862   204395850.873   159269492.659   152633276.775          47.300          48.800                          51.100  
J03  18953382.680    18953379.125    18953395.621    18953396.352   199201429.705   199201425.571   155221890.227   148754331.927          41.000          41.300                          43.400  
J01  18551998.063    18551996.352    18552007.305    18552007.648   194982814.397   194982852.766   151934689.008   145604086.047          43.100          43.100                          47.100  
J07  18577050.016    18577045.219    18577059.902    18577060.070   195246064.927   195246149.840   152139855.110   145800680.471          39.700          46.400                          49.200  
> 2021 12 14 06 34 20.0000000  0 34
G25  23204688.266    23204698.500    23204699.293    23204697.172   121941439.432    95019360.280    95019354.298    91060213.594          40.900          29.600          42.100          44.600  
G26  20696272.875    20696283.688    20696283.672    20696280.941   108759618.374    84747822.176    84747812.179    81216623.596          46.200          49.700          48.000          50.200  
G32  20956806.250    20956815.453    20956815.973    20956813.125   110128735.607    85814657.047    85814648.051    82239034.355          49.600          54.500          49.600          50.100  
G31  20830494.172    20830500.621    20830500.762                   109464968.722    85297420.380    85297424.392                          47.000          50.300          46.700                  
G03  23691140.594    23691150.902    23691151.203    23691149.559   124497753.188    97011300.003    97011295.999    92969154.883          39.800          37.300          43.000          44.800  
G29  23438119.383    23438127.430    23438127.723                   123168126.078    95975214.953    95975215.957                          42.400          33.000          41.900                  
G16  23709153.016    23709161.051                                   124592437.265    97085053.691                                          39.200          22.200                                  
R07  20342390.914    20342389.973    20342396.918   108894411.155   108894407.156    84695496.053          50.500          48.200          44.700  
R08  19547531.945    19547530.645    19547535.391   104676139.091   104676137.093    81414905.678          48.700          47.000          45.600  
